[
	{
		"id": 1,
		"title": "Eiffel Tower",
		"name": "Eiffel Tower",
		"frenchname": "La tour eiffel",
		"position": {
			"lat": 48.8583701,
			"lng": 2.2944813
		},
		"founded": 1889,
		"description":"The Eiffel Tower is a wrought iron lattice tower on the Champ de Mars in Paris, France. It is named after the engineer Gustave Eiffel, whose company designed and built the tower"
	},
	{
		"id": 2,
		"title": "The Louvre",
		"name": "The Louvre",
		"frenchname": "Musée du Louvre",
		"position": {
			"lat": 48.8606111,
			"lng": 2.33545
		},
		"founded": 1793,
		"description":"The Louvre, or the Louvre Museum, is the world's largest art museum and a historic monument in Paris, France. A central landmark of the city, it is located on the Right Bank of the Seine in the city's 1st arrondissement."
	},

	{
		"id": 3,
		"title": "Notre-Dame de Paris",
		"name": "Notre-Dame de Paris",
		"frenchname": "Cathédrale Notre-Dame de Paris",
		"position": {
			"lat": 48.8529682,
			"lng": 2.3477081
		},
		"founded": 1163,
		"description":"Notre-Dame de Paris, also known as Notre-Dame Cathedral or simply Notre-Dame, is a medieval Catholic cathedral on the Île de la Cité in the fourth arrondissement of Paris, France"
	},
	{
		"id": 4,
		"title": "Sacre Coeur",
		"name": "Sacre Coeur",
		"frenchname": "Sacré-Cœur",
		"position": {
			"lat": 48.8867046,
			"lng": 2.3409103
		},
		"founded": 1914,
		"description":"The Basilica of the Sacred Heart of Paris, commonly known as Sacré-Cœur Basilica and often simply Sacré-Cœur, is a Roman Catholic church and minor basilica, dedicated to the Sacred Heart of Jesus, in Paris, France"
	},
	{
		"id": 5,
		"title": "Moulin Rouge",
		"name": "Moulin Rouge",
		"frenchname": "Moulin Rouge",
		"position": {
			"lat": 48.8841232,
			"lng": 2.3300579
		},
		"founded": 1889,
		"description": "Moulin Rouge is a cabaret in Paris, France. The original house, which burned down in 1915, was co-founded in 1889 by Charles Zidler and Joseph Oller, who also owned the Paris Olympia"
	},

]
